deployment,dive_start,feeding_start,feeding_end,dive_end,dive_start_timestamp,descent_time,feeding_time,ascent_time,dive_time,stroke_frequency_feeding,avg_feeding_depth,avg_feeding_speed,max_dive_depth,pitch_excursion,roll_excursion,heading_excursion,depth_excursion,dist_total,dist_feeding,staightline_dist_feeding,tortuosity_feeding,avg_pitch_feeding,max_roll_feeding,time_between_dives,observed_feeding
ea230116-P47,3467,3511,3762,3818,2023-01-16 12:09:18,4.4,25.1,5.6,35.1,0.159362549800797,2.26183617569505,1.67920601775133,3.63776593701576,53.9003904957222,46.3176205701996,147.152360586208,3.04759629424826,59.2885650644628,42.2292955184979,29.0934112097822,0.311060938796901,-11.8850657126709,50.3868495795509,12.4,y
ea230116-P47,3942,4017,4237,4266,2023-01-16 12:10:06,7.5,22,2.9,32.4,0.181818181818182,2.7292891852594,1.27603513356156,3.46597456710001,46.7252349411838,19.0205417613445,304.765046418738,1.89676436772044,39.4112713266395,27.0198477244856,15.5125608240916,0.425882744334121,-16.1318677388261,14.2746733086598,0,n
ea230116-P47,4266,4335,4586,4674,2023-01-16 12:10:38,6.9,25.1,8.8,40.8,0.199203187250996,2.36473210500459,1.4701514692121,3.11119986307805,38.4751964535849,21.9490223419568,273.012476760039,1.60794299101512,58.2251348761561,36.1502261572041,15.099458741986,0.582313574572839,-12.4971227092659,13.5726476481055,0,n
ea230116-P47,4674,4730,4944,5015,2023-01-16 12:11:19,5.6,21.4,7.1,34.1,0.163551401869159,1.74004838690506,1.39277735693179,2.35628368376132,28.0041663224418,9.28567819444875,28.4557488506744,1.10230004522797,48.2081946101345,29.5788305644261,28.9605630454412,0.0209023652114414,-8.67648709716536,6.19376904811796,0,n
ea230116-P47,5015,5041,5662,5735,2023-01-16 12:11:53,2.6,62.1,7.3,72,0.144927536231884,6.24391559667702,1.24930409371604,8.53028010376805,39.2159995616059,13.5700509485294,36.5528571390509,6.73564016124886,92.1337768718294,78.3844442907096,75.7666657921554,0.0333966582558847,-4.34763747484458,8.24755296527326,32.1,n
ea230116-P47,6056,6133,7174,7245,2023-01-16 12:13:37,7.7,104.1,7.1,118.9,0.153698366954851,5.99083204484884,0.998711834590641,7.5706198353286,33.7964636221384,83.595959475498,357.61308237523,3.20817289841179,125.315876875702,104.295930315088,66.8494280811472,0.359040876483017,-6.73618327341329,80.1724348133284,0,y
ea230116-P47,7245,7311,8054,8128,2023-01-16 12:15:36,6.6,74.3,7.4,88.3,0.168236877523553,5.90721269387835,1.04549310777089,7.77115493588132,27.9563571554536,10.7529893806763,28.2838623129426,3.57160058095503,98.2423587762685,78.4516874688503,76.3336741574026,0.0269976769115216,-4.78060826263955,9.81464944257524,1.3,n
ea230116-P47,8141,8225,8649,8726,2023-01-16 12:17:06,8.4,42.4,7.7,58.5,0.165094339622642,5.43044322323363,1.07262744431969,5.98723007673596,22.7707981576184,6.35089869268316,8.14285038622683,1.42843175538875,66.8017690990195,45.8771363113946,45.083797072112,0.01729269311619,-3.83889118793986,4.6718701414195,0,n
ea230116-P47,8726,8810,9091,9194,2023-01-16 12:18:04,8.4,28.1,10.3,46.8,0.160142348754448,5.24457388865189,1.11496087585891,5.60482978466589,22.0096757161548,4.0133592656078,22.5779744440939,0.84462381603359,55.2792905654633,31.5736492456827,30.9356155591884,0.0202077904118604,-4.28900363330548,3.90967954536639,44.9,n
ea230116-P47,9643,9693,11321,11390,2023-01-16 12:19:36,5,162.8,6.9,174.7,0.175061425061425,5.93797155730828,1.07779211434412,8.39208630887974,42.8968926608883,9.84328382925636,23.9103915740725,4.70307966762567,195.098748885909,178.052851210144,172.89015782943,0.0289952862064573,-3.5252765533216,7.58191580626939,0,y
ea230116-P47,11390,11447,11641,11706,2023-01-16 12:22:31,5.7,19.4,6.5,31.6,0.206185567010309,6.05488824589395,1.16072136715613,6.99637588892184,52.6075283753589,5.58291109118774,10.2866738316075,3.23581103560765,42.615354553269,23.5316002697789,21.983823920595,0.0657743770691055,-3.542473973865,5.32540100125226,30.3,y
ea230116-P47,12009,12082,12476,12559,2023-01-16 12:23:32,7.3,39.4,8.3,55,0.190355329949239,5.44040873411027,1.10363101884734,5.97892532359731,21.7833776956716,5.39451975203004,10.1120033547999,1.5399169620904,66.3531611213546,44.0308448698914,43.1967702995943,0.0189429608439643,-2.36956212086544,4.98709031733436,0,y
ea230116-P47,12559,12614,12895,12976,2023-01-16 12:24:27,5.5,28.1,8.1,41.7,0.142348754448399,4.9516458027989,1.17978213912586,5.75977855017232,29.228543009527,6.36322899245985,11.6901433110386,1.78616118657194,53.9158326443344,33.8528815735811,32.7572789754344,0.0323636437201157,-2.51658083691386,5.20639786155762,0,n
ea230116-P47,12976,13034,13152,13216,2023-01-16 12:25:09,5.8,11.8,6.4,24,0.169491525423729,4.54980788947384,1.37554100728779,5.28581259927099,28.3657168523387,3.47225313244979,9.09819474322717,1.56797456662376,35.081826569729,16.4278750016704,16.024332445107,0.0245645012834829,-2.36243940575643,2.56562436694369,1.7,n
ea230116-P47,13233,13295,13716,13777,2023-01-16 12:25:35,6.2,42.1,6.1,54.4,0.178147268408551,4.28124772734185,1.19651585524584,5.21540474920183,37.9619968526348,10.9743302804819,9.62696897648544,1.84142100479486,68.2276970386158,50.7932836649826,49.7397297019965,0.0207419935662159,-3.99463175714103,6.56348122125373,0,y
ea230116-P47,13777,13829,14215,14309,2023-01-16 12:26:29,5.2,38.6,9.4,53.2,0.181347150259067,4.02638658005876,1.12898702298404,4.66658067521172,23.2053399316416,5.69093971382392,9.66355930849227,1.38357117223124,63.4296813989192,44.0449206923959,43.210460453313,0.0189456633356369,-4.2485300108768,7.73373182922643,0.2,y
ea230116-P47,14311,14373,14539,14598,2023-01-16 12:27:23,6.2,16.6,5.9,28.7,0.150602409638554,4.0372063296966,1.25223684564691,4.42861115788067,28.7981088902192,7.19242355654119,10.2952847842628,1.47035304132003,38.7365762233486,20.9589041388131,20.5425870808098,0.0198634935894547,-0.841645792088828,8.26813527526838,0,n
ea230116-P47,14598,14649,15768,15815,2023-01-16 12:27:51,5.1,111.9,4.7,121.7,0.183199285075961,4.15569536590319,1.21026273551014,5.04673102495045,36.1810024572237,15.3894010018774,79.6898132534466,2.24933843007177,151.096468698189,136.824225528948,130.900345343512,0.0432955506419621,-3.83449318245014,9.04543306490092,0,y
ea230116-P47,15815,15860,16837,16896,2023-01-16 12:29:53,4.5,97.7,5.9,108.1,0.174002047082907,5.16529094207125,1.06436299121796,6.34613478484216,46.2677928596834,88.091587000036,140.058149389337,3.16609863573483,122.734588859041,105.057506868899,79.7556180635648,0.240838466087992,-6.24908870232421,75.022348698808,27.5,y
ea230116-P47,17171,17246,17907,18021,2023-01-16 12:32:09,7.5,66.1,11.4,85,0.158850226928896,6.02694971919132,1.02378496175105,7.24061745347434,29.7385746550434,20.3340301593834,44.7504195597887,2.41076308835803,93.9806392453272,68.3435621311309,65.1709409187225,0.0464216542638066,-5.87054034632926,12.2641041828513,20.5,n
ea230116-P47,18226,18272,18503,18559,2023-01-16 12:33:54,4.6,23.1,5.6,33.3,0.12987012987013,4.62203162222933,1.05103188398959,5.54149446729695,63.6111135477211,64.5297677454235,180.490049064336,1.86037472848299,37.3063445601851,23.2115305382983,14.379647264966,0.380495515311237,-15.2979867845615,34.4806380050986,13.7,n
ea230116-P47,18696,18759,20061,20104,2023-01-16 12:34:41,6.3,130.2,4.3,140.8,0.153609831029186,5.0580095791269,1.04907908764762,6.29400812075443,50.8967633086033,26.4427091738982,82.4221328861399,2.50804780329087,153.438579924244,138.432482318115,124.666413218543,0.0994424781601329,-5.47437445084863,16.6084624195246,44.5,y
ea230116-P47,20549,20629,22457,22527,2023-01-16 12:37:46,8,182.8,7,197.8,0.185995623632385,5.49126227186033,1.10194426872524,6.99644417006124,30.607388752568,48.0988739460223,56.7123800580087,2.96386909087279,222.88746664109,202.870347550229,192.634462093054,0.050455305966489,-5.16015568208692,41.9765504534392,26.4,n
ea230116-P47,22791,22889,23292,23380,2023-01-16 12:41:31,9.8,40.3,8.8,58.9,0.173697270471464,5.47414844457285,1.09188484173156,6.04552335865594,26.0115124150664,70.0917443420769,70.5894709959098,1.18118199305954,69.3504166424871,43.4018631932921,40.2152267583775,0.0734216506034022,-11.1320955075522,74.7125844923224,11.6,n
ea230116-P47,23496,23574,24154,24229,2023-01-16 12:42:41,7.8,58,7.5,73.3,0.163793103448276,4.69163721059643,1.07413819393958,5.62703468569979,27.8099455932576,85.3933466891586,40.7301669787767,1.53417941117025,81.2911362746835,62.0647441867713,60.6291685076638,0.0231302923731939,-8.61232938264205,70.4790517680789,27.5,y
ea230116-P47,24504,24594,25686,25776,2023-01-16 12:44:22,9,109.2,9,127.2,0.169413919413919,5.27766868178186,1.06740625596248,6.01773445381181,30.1967084178456,65.6165253411452,51.2342911846873,1.75801388514007,141.693657708625,118.195244062694,113.411903939448,0.0404698189100522,-3.4535230525407,65.3153347938595,19.3,y
ea230116-P47,25969,26051,26611,26675,2023-01-16 12:46:48,8.2,56,6.4,70.6,0.169642857142857,5.04267282179127,1.03693949238849,5.62620286696394,27.6138543743331,74.6461804034246,25.874989382005,1.33343700810786,77.0556497245928,57.0478387942732,56.1856489682548,0.0151134529237414,-11.8940217767975,76.7735310408086,20.4,n
ea230116-P47,26879,26971,27875,27949,2023-01-16 12:48:19,9.2,90.4,7.4,107,0.154867256637168,5.61360868793629,1.07863642001332,6.55855314488714,41.6153588072487,88.6087552891793,152.333428788094,2.39784547596392,120.53875521629,98.1243372123131,85.3535488249376,0.130149041004407,-3.6198595309002,61.4092038858492,9.4,y
ea230116-P47,28043,28133,28808,28904,2023-01-16 12:50:16,9,67.5,9.6,86.1,0.185185185185185,6.05799952319578,1.08314508736161,6.86031075830906,29.406513942437,156.842425344952,76.7240065031105,1.86543086693616,96.1252560727036,72.9089563347146,69.1251044527792,0.0518983136250681,-5.29223329170068,79.2382461443264,2.9,n
ea230116-P47,28933,29001,29282,29341,2023-01-16 12:51:45,6.8,28.1,5.9,40.8,0.124555160142349,4.79829609860886,1.05263948199321,5.58208036840921,39.6220784733718,7.48827197037726,13.7806718323088,1.43472587145709,47.3371272680433,30.1079162723607,29.0861756830628,0.0339359449539812,-3.52921203044193,8.14513058259603,0,y
ea230116-P47,29341,29410,30065,30138,2023-01-16 12:52:26,6.9,65.5,7.3,79.7,0.16030534351145,4.45215439140403,1.09782280589339,5.26226722430762,30.1796290516725,10.3560129050974,19.9920588019871,1.49902584334503,90.9865387755076,72.5717039175939,70.8613372439057,0.0235679552960517,-4.57357947556636,6.20090502717879,2,n
ea230116-P47,30158,30228,30927,30988,2023-01-16 12:53:47,7,69.9,6.1,83,0.1931330472103,4.72451871621292,1.11857887385959,5.36349313647398,31.0014660990577,6.26492543634233,11.5060029547055,1.26485767616459,96.838942523826,78.8056457663754,77.4518592119504,0.0171788016107166,-4.11222861600179,4.87514441962817,0,y
ea230116-P47,30988,31063,31266,31327,2023-01-16 12:55:10,7.5,20.3,6.1,33.9,0.172413793103448,4.46575530173807,1.12298572473904,5.14903803527281,31.9239161093117,9.91621123350892,16.6852730147984,1.54928700568089,41.0887356562007,23.1431161192316,22.4392811928977,0.0304122799500212,-4.64229321523702,6.28314627159798,0,y
ea230116-P47,31327,31387,31523,31568,2023-01-16 12:55:44,6,13.6,4.5,24.1,0.110294117647059,4.22650510764885,1.07489869160231,4.69667338943535,43.3910137209775,4.20688658034934,7.2414030160669,1.27837495806554,29.2108459738774,14.8384048040477,14.3188846874757,0.0350118576378455,-1.19061948532474,3.67552571072096,16.2,n
ea230116-P47,31730,31832,33578,33675,2023-01-16 12:56:25,10.2,174.6,9.7,194.5,0.160366552119129,6.36557890047411,1.04153998859696,7.49390955858169,34.2159387804095,157.300539300685,277.236005491356,2.93159635931491,206.043424523853,181.423720960543,40.5775707639161,0.776338118581853,-8.95436780314688,79.9755516818749,11.8,y
ea230116-P47,33793,33851,34451,34533,2023-01-16 12:59:51,5.8,60,8.2,74,0.183333333333333,5.76349826153268,1.11140856241764,6.59197818714194,30.0396137145316,8.10092896858071,29.7204590037891,1.83138591336664,86.8855153998457,67.3619923318687,65.4813047323317,0.0279191207746862,-3.64073925461625,5.61225817021024,20.5,n
ea230116-P47,34738,34801,35364,35441,2023-01-16 13:01:25,6.3,56.3,7.7,70.3,0.186500888099467,4.91832791625836,1.05772916306173,5.40874631494639,28.4317098106163,27.5516178373202,36.780430870941,1.34314227278513,79.6749965294972,60.4499142996277,57.711249418213,0.0453046941942735,-5.34609160410818,22.0267327234737,9.7,n
ea230116-P47,35538,35625,36273,36364,2023-01-16 13:02:45,8.7,64.8,9.1,82.6,0.169753086419753,5.19476882411187,1.07748488560708,6.30870192595411,29.3918794364479,68.2222033134643,38.6506309384172,2.00083833182225,94.8490829177293,69.4262539121585,67.4771810001308,0.0280740037406283,-10.059810250064,65.1421034557546,16.1,y
ea230116-P47,36525,36584,37184,37247,2023-01-16 13:04:24,5.9,60,6.3,72.2,0.191666666666667,5.09801964371675,1.10373465520238,5.79820198596451,29.7490663672769,37.7140917002545,43.0326060623335,1.61018907711119,83.4478409425358,66.7943544770119,63.5603107342163,0.0484179204682435,-4.75997242940779,40.1065029358602,2.7,n
ea230116-P47,37274,37334,37457,37500,2023-01-16 13:05:39,6,12.3,4.3,22.6,0.121951219512195,5.02812555898662,1.22754142261661,5.61203991283763,32.6857211837965,6.92219966488722,76.6578507687082,2.4672171341152,29.9567176318627,15.3128824044911,13.5383956444949,0.115881955671241,0.0302064051968997,7.74260091426772,17.6,y
ea230116-P47,37676,37754,38619,38675,2023-01-16 13:06:19,7.8,86.5,5.6,99.9,0.167630057803468,4.40520663579226,1.10265312050182,5.41009435502403,31.7675240523924,9.03772563901983,37.9674667639451,1.893871060023,114.505817262802,96.5570046018649,92.9406415298171,0.0374531406287839,-3.58336663590058,8.99496953544646,1.7,n
ea230116-P47,38692,38738,39254,39316,2023-01-16 13:08:01,4.6,51.6,6.2,62.4,0.174418604651163,4.52606875117493,1.16512504254538,5.11014276789665,23.3063722936264,9.60172589184348,20.4213486516777,1.27293501036329,76.3618411322151,60.7498675100834,59.3918707008254,0.0223539056942397,-3.76774450008248,6.35718301604622,0,n
ea230116-P47,39316,39378,39972,40032,2023-01-16 13:09:03,6.2,59.4,6,71.6,0.185185185185185,4.41189149954518,1.15859133238732,4.84295477288476,21.0166888839283,6.07065353471724,22.1566877687413,1.00399538462969,86.5871232177109,69.2332302376245,67.8718293352507,0.0196639806881916,-4.22606758133661,5.02181410687594,0,n
ea230116-P47,40032,40107,40429,40484,2023-01-16 13:10:15,7.5,32.2,5.5,45.2,0.186335403726708,5.07406672769996,1.13571966930923,5.88893509683584,29.8708794057547,5.79866556229394,16.33344817742,1.48893024197502,55.2940108201026,37.0298031958012,36.239246401724,0.0213492032322457,-2.2915279440433,4.40440836825659,0,n
ea230116-P47,40484,40556,41696,41775,2023-01-16 13:11:00,7.2,114,7.9,129.1,0.175438596491228,4.90688875972515,1.15879465231312,5.75668291507264,28.138825891676,7.34038692466233,12.5162808869101,1.65015593994877,153.466841996506,133.525324546704,130.814651193454,0.0203008183088326,-4.06260779675758,6.47962834303672,9.9,n
ea230116-P47,41874,41934,41977,42044,2023-01-16 13:13:19,6,4.3,6.7,17,0.116279069767442,4.19760877283275,1.09900211964515,4.56305519663089,9.07552307946193,7.57858197912681,7.22665008490208,0.457916147752301,23.0242378543786,4.71362762646084,4.70633029462196,0.00154813498586959,-7.03680052935598,7.29966612109828,29.3,y
ea230116-P47,42337,42422,42875,42931,2023-01-16 13:14:05,8.5,45.3,5.6,59.4,0.187637969094923,4.30786808040451,1.16891621927404,5.0060290406082,35.1406175601662,12.2837227382241,45.4498239457384,1.86213832868516,73.423164807877,53.2986474233486,51.3786856701709,0.0360227106314262,-5.66449192300413,6.93393193713316,1.8,y
ea230116-P47,42949,43024,43326,43411,2023-01-16 13:15:06,7.5,30.2,8.5,46.2,0.198675496688742,4.96955147397781,1.18522113054094,5.83354380283733,23.7078813920157,7.88959398643345,10.2970540766742,1.60359321499209,58.391823241824,36.2019677547653,35.491873917802,0.0196147856319171,-3.62685969524582,6.26458292412591,76.1,n
ea230116-P47,44172,44245,44353,44393,2023-01-16 13:17:09,7.3,10.8,4,22.1,0.185185185185185,4.22755612858387,1.27919711985205,5.05658788605527,39.3796215690204,3.97150855772135,9.30422692224897,1.95016250723835,31.6195970422198,14.0328295613333,13.5701350587804,0.0329722883421771,-0.371757273115448,3.13857026024805,2,n
ea230116-P47,44413,44493,45911,46001,2023-01-16 13:17:33,8,141.8,9,158.8,0.169252468265162,4.98659428334004,1.12139920833536,5.87206363217645,30.6193770995697,8.47763518767796,47.3242915103375,1.60592808157167,184.663760754767,160.684979075564,153.762483570378,0.0430811613195659,-4.55325825182722,8.11307571813859,0,y
ea230116-P47,46001,46065,46180,46244,2023-01-16 13:20:12,6.4,11.5,6.4,24.3,0.173913043478261,4.47297939335805,1.19004975062409,5.06503552664438,32.5816946573146,6.51434444912911,13.8382839166931,1.4246072497196,32.8349854018582,13.9237528344383,13.5432088159626,0.0273305640369074,-1.62660848689146,7.55733570693248,0,n
ea230116-P47,46244,46292,46408,46463,2023-01-16 13:20:36,4.8,11.6,5.5,21.9,0.0862068965517241,4.28456121275145,1.08746819886866,4.57794059913131,35.8216003489875,3.83387195617599,9.3235065268965,1.03377862370091,29.9474649175908,12.7275896748932,12.5001911569299,0.0178665814794404,-3.63604615294902,5.22619121828789,1.9,n
ea230116-P47,46482,46550,46872,46930,2023-01-16 13:21:00,6.8,32.2,5.8,44.8,0.15527950310559,4.6512187116166,1.13679438481876,5.16407785753199,34.6751866391411,9.55062504022678,11.744849234753,1.06014273414653,55.6724634983613,37.0476198528567,36.2343388244371,0.0219523151999986,-3.05228753431073,8.44181210334897,0,n
ea230116-P47,46930,46988,47140,47190,2023-01-16 13:21:45,5.8,15.2,5,26,0.164473684210526,4.0989748311056,1.08408253703124,4.52475264019359,40.6587823158993,4.84215979244372,11.7740637085803,1.64587407503508,32.1116952348576,16.8562191091923,16.1631302014337,0.0411176968731143,-2.03608934174245,3.36076560256137,0,n
ea230116-P47,47190,47245,48188,48243,2023-01-16 13:22:11,5.5,94.3,5.5,105.3,0.180275715800636,4.19144279663456,1.12730881133008,4.90743270015601,30.160245210147,7.99076551227814,19.463497468575,1.45441987000691,123.316496178921,107.119378076194,105.045175379932,0.0193634684359955,-4.27630906756459,7.47534318870178,1.8,n
ea230116-P47,48261,48311,48749,48841,2023-01-16 13:23:58,5,43.8,9.2,58,0.159817351598174,4.67868020457824,1.08838719999083,5.65143697465347,32.783416467391,9.69961341419015,17.5545290533296,1.96906762756505,67.3262971066749,47.9413570938772,47.0435409786947,0.0187273821519999,-5.19759773414054,6.79241884245497,3.6,n
ea230116-P47,48877,48921,49030,49083,2023-01-16 13:24:59,4.4,10.9,5.3,20.6,0.229357798165138,3.80798081592287,1.2439356347158,4.4373764022674,34.9922691092857,4.46716020632652,8.85586361101036,1.34424001362462,28.2391185495303,13.6703124567132,13.3628112657308,0.0224940865072449,-1.83074523310816,4.42522293843209,0,n
ea230116-P47,49083,49108,49247,49297,2023-01-16 13:25:20,2.5,13.9,5,21.4,0.107913669064748,4.18192449526871,1.285200290834,5.04215869213891,34.2462564174391,7.45957327682564,5.11645338235758,2.88350849379094,31.2415380038201,18.1537924483027,17.5380601819488,0.0339175556902168,-3.65353827385447,5.40263369915668,2.1,y
ea230116-P47,49318,49406,49626,49702,2023-01-16 13:25:43,8.8,22,7.6,38.4,0.181818181818182,5.11808586423153,1.18660135113345,5.9600489199182,27.1054498348559,6.22711913015336,8.10376358579413,1.6549480366573,49.8611239244628,26.4986971631169,25.8404427510565,0.024841010409244,-2.54218536618112,5.46445432358477,2.2,n
ea230116-P47,49724,49834,51032,51094,2023-01-16 13:26:24,11,119.8,6.2,137,0.183639398998331,6.6725063165203,1.08606213352282,7.9091265561386,38.7824687119433,20.8795673498015,45.5971564871982,3.22679483393395,155.869656542702,131.218170486032,125.358797426722,0.0446536713445043,-4.78397439416235,11.9568371776188,2.3,n
ea230116-P47,51117,51188,51978,52081,2023-01-16 13:28:43,7.1,79,10.3,96.4,0.177215189873418,6.9748282348583,1.10809692230105,8.16895561579223,36.0267517233281,5.85375098704887,14.8468103180918,2.66077610525939,111.825015683606,88.5622107878517,86.4698203348162,0.0236262220017038,-4.51248897716975,7.02541916324108,749.6,n
ea230116-P47,59577,59671,60065,60201,2023-01-16 13:42:49,9.4,39.4,13.6,62.4,0.139593908629442,4.92291710774252,1.27887462288903,5.42498834716689,18.0222276761248,8.78539676706585,18.5328460416929,1.52708619571047,79.1387897924805,49.0223555562507,48.3319358120049,0.0140837733399735,-15.3681181595061,6.28714650354601,19.1,n
ea230116-P47,60392,60492,60770,60855,2023-01-16 13:44:11,10,27.8,8.5,46.3,0.12589928057554,4.36389545758176,0.986396443454533,4.98590482365524,26.6806573079177,8.82717654927458,16.01039731163,1.75574153976702,48.9696179547969,26.6154879788352,26.2546248462255,0.0135583887433004,-14.3381052866499,5.64132256735599,1.7,y
ea230116-P47,60872,60920,61938,61995,2023-01-16 13:44:59,4.8,101.8,5.7,112.3,0.166994106090373,6.21002717234457,1.07837969309511,8.15876684499388,38.6382153091837,11.0252972260747,35.1912484190254,4.76623028734555,123.194477358525,109.061061260867,105.21510161047,0.0352642786154257,-11.891696251948,6.31594000848149,15.9,y
ea230116-P47,62154,62213,62820,62910,2023-01-16 13:47:07,5.9,60.7,9,75.6,0.164744645799012,5.62596876657929,1.03746668265457,6.55930575536779,29.7100792610956,10.4646355844356,28.740403474942,2.00871276953989,84.6491738561625,62.7160104980298,60.8155674222744,0.0303023591689565,-11.8983487241698,7.46302695397089,0.9,y
ea230116-P47,62919,63004,64357,64453,2023-01-16 13:48:23,8.5,135.3,9.6,153.4,0.177383592017738,5.92425236032962,1.03859316827868,6.78200659822514,25.7406491599713,10.6331233187862,74.0521681332727,2.07590758781221,163.110978937297,139.303041606391,129.381392965317,0.0712234889250213,-12.4887028867502,6.72787044522795,31.2,n
ea230116-P47,64765,64831,66004,66098,2023-01-16 13:51:28,6.6,117.3,9.4,133.3,0.15771526001705,6.28457665948768,1.00862474366527,7.31890424464533,34.8530961669573,93.9062640384837,203.034849585077,2.92601865855067,137.101997976448,116.667094860077,38.4125388573845,0.670750875356465,-12.731659358137,80.8960168647831,1,y
ea230116-P47,66108,66183,66726,66821,2023-01-16 13:53:42,7.5,54.3,9.5,71.3,0.174953959484346,6.37689345058086,1.06051706106356,7.22358657358245,35.2086997857778,9.69659717920676,43.3935617178563,2.0207100023549,78.889496907548,56.7021329353135,53.8930882554616,0.0495403706075132,-12.5120231017617,6.0658628746414,25.5,y
ea230116-P47,67076,67163,68248,68352,2023-01-16 13:55:19,8.7,108.5,10.4,127.6,0.184331797235023,5.88108494383837,1.07083506772429,6.88368552491864,26.7639027040373,12.8288863209074,64.4123230552934,1.84047052442522,139.997218857426,115.152069897957,107.890338835399,0.0630620975288857,-11.8329806962835,8.02888407396227,41.7,y
ea230116-P47,68769,68837,69966,70020,2023-01-16 13:58:08,6.8,112.9,5.4,125.1,0.163861824623561,5.79971951278774,1.0628824348435,6.65806189564071,51.2330821707194,16.2595153873252,62.2862771014231,2.54486104929264,135.22535237017,118.510676684255,114.088494874915,0.0373146279564529,-12.8681510752253,14.4426690527202,1.9,y
ea230116-P47,70039,70099,70564,70639,2023-01-16 14:00:15,6,46.5,7.5,60,0.150537634408602,5.27551113891445,1.06526126007713,5.98873509628987,25.1398522692284,13.0512247559839,58.8348438501703,1.28902251685247,66.3813774859704,49.035043110069,45.7081194366911,0.0678478790343871,-12.9749206027045,9.29656904841397,0,n
ea230116-P47,70639,70695,71132,71216,2023-01-16 14:01:15,5.6,43.7,8.4,57.7,0.183066361556064,5.20299384920099,1.06229770396011,5.74996548783218,25.1800142045055,9.32305918451531,43.3039105723626,1.38449140997525,63.8778017203248,45.865262940817,43.7121032838292,0.0469453246079969,-12.7956393764148,4.86741681135203,1.5,y
ea230116-P47,71231,71280,71463,71524,2023-01-16 14:02:15,4.9,18.3,6.1,29.3,0.163934426229508,4.81416730353347,1.02526008471678,5.56112686740336,41.6526237159024,11.13793448907,31.0110797370771,2.10287979401118,34.574112046546,18.8022217441538,17.8481090415056,0.0507446787741883,-13.2565993988371,8.89977503955791,9.5,y
ea230116-P47,71619,71674,72550,72632,2023-01-16 14:02:53,5.5,87.6,8.2,101.3,0.182648401826484,5.72390442537179,1.06655685231153,7.12743595938707,32.082974231663,9.14108048084093,46.3602237544724,2.72010600106106,110.666653148215,92.3153831369812,89.1861787499897,0.0338968899944695,-12.5185420893078,7.48804620659301,0,n
ea230116-P47,72632,72696,73073,73143,2023-01-16 14:04:35,6.4,37.7,7,51.1,0.159151193633952,5.08724441764638,1.06430761074416,5.62107949526318,22.3613889470232,7.91587856988352,21.8189662799784,1.4098826722057,58.410599844238,39.8852440130951,38.9646510433145,0.0230810414367361,-11.1644959288736,5.05671467872651,23.6,n
ea230116-P47,73379,73453,73955,74021,2023-01-16 14:05:49,7.4,50.2,6.6,64.2,0.139442231075697,5.52276190552832,1.08218953134793,7.00919152964666,37.3026843961615,9.12950364461621,15.0090176092597,2.82716772513432,73.3647670699302,54.2806676445697,52.6064486933555,0.0308437427884464,-11.1350076098674,8.41589226039148,1.3,n
ea230116-P47,74034,74084,74260,74331,2023-01-16 14:06:55,5,17.6,7.1,29.7,0.113636363636364,5.42560375352526,1.05666325603853,6.37136594670822,40.6960846071155,5.72829713375699,9.24241658424512,2.82098655429303,36.8139706002221,18.8035076526324,17.8690210232263,0.0496974631898127,-12.2092667749704,7.67907473471534,72.1,y
ea230116-P47,75052,75090,75351,75413,2023-01-16 14:08:37,3.8,26.1,6.2,36.1,0.153256704980843,4.39448793960407,1.03030051318417,5.22302487619616,29.2939012811343,12.0549023298585,38.6085000621213,2.51799073502944,40.8346715030071,26.5123523579085,25.2834881589902,0.0463506286552422,-15.1311270449996,6.15344240062546,1.5,n
ea230116-P47,75428,75498,76590,76669,2023-01-16 14:09:14,7,109.2,7.9,124.1,0.16025641025641,4.54239891381514,1.06899360168401,5.45230549524378,26.6050794289225,8.96863035503347,45.7157964054716,1.69009346648528,134.61444117203,115.160564045082,110.982841590119,0.0362773705530669,-13.422492026921,7.24261459293495,0.9,n
ea230116-P47,76678,76738,77311,77356,2023-01-16 14:11:19,6,57.3,4.5,67.8,0.148342059336824,5.95432513959025,1.11689472291389,7.21488244315692,43.4616199617314,11.9825556099308,40.8390200980923,3.6830824464341,78.5732707785067,63.15136774162,60.4020765299729,0.0435349432635518,-13.1755018924675,10.0182705351761,27.4,n
ea230116-P47,77630,77718,78261,78324,2023-01-16 14:12:55,8.8,54.3,6.3,69.4,0.147329650092081,5.25494642747135,1.05850314283857,5.89203492153475,41.7472413195155,7.10679859296239,24.9297374187363,1.33565230830631,77.9112427868539,57.1476276380122,55.616873753762,0.0267859567845296,-11.6056989329529,6.52508807449965,2.8,n
ea230116-P47,78352,78406,78687,78782,2023-01-16 14:14:07,5.4,28.1,9.5,43,0.160142348754448,5.10504233502551,1.14104732633344,5.60549450695077,31.8996156394155,9.34953855715011,23.9992316522107,1.21938465487886,53.8052219845584,32.1268410053165,31.1018252518458,0.0319052767528896,-11.0362397817096,7.99120039277634,61.8,n
ea230116-P47,79400,79441,79651,79675,2023-01-16 14:15:52,4.1,21,2.4,27.5,0.166666666666667,4.60492738466905,1.23736117230365,5.50121325043824,42.6025100925907,8.10968270030636,20.0043133191855,3.19167889805808,37.7910663817541,26.3152953097477,25.1329446509655,0.0449301687427453,-8.46185960413796,6.98126908729567,0,n
ea230116-P47,79675,79746,80390,80472,2023-01-16 14:16:19,7.1,64.4,8.2,79.7,0.16304347826087,5.46864476200451,1.20849667564433,7.39426855718,27.6128899306306,8.79121591269653,21.3575763852775,3.32807005179478,100.197462362602,76.9735307021125,75.3426672264967,0.0211873284327725,-11.9248540455896,8.11279431943543,nan,y
ea230119-P49,1948,2402,4167,4763,2023-01-19 18:54:01,45.4,176.5,59.6,281.5,0.135977337110482,31.5269414780731,0.688654689442248,32.5997372615151,28.9645108449896,15.6558036611556,33.019854262987,4.15708683139833,215.443607572387,120.352899608885,118.345295224814,0.0166809806044955,-9.78158822446003,10.4481807324306,130.6,n
ea230119-P49,6069,6682,9923,10210,2023-01-19 19:00:53,61.3,324.1,28.7,414.1,0.15581610614008,32.5889921225186,0.791347213837899,36.7848456461687,47.5660982675791,80.6090980555838,327.148148964908,6.62652344345993,344.123555879811,256.17449698013,92.5123039963518,0.63886996915416,-8.19956935864938,66.7043291637266,164.5,n
ea230119-P49,11855,12399,15816,16113,2023-01-19 19:10:32,54.4,341.7,29.7,425.8,0.119988293824993,28.4862904968958,0.714646505368155,33.8113866526327,48.7904082549561,70.0151830952262,227.800156096361,9.17301180326875,325.26033404315,244.605953901866,21.3193596631156,0.912842024803416,-7.82400739806921,54.9636524162797,109.3,n
ea230119-P49,17206,17551,19972,20325,2023-01-19 19:19:27,34.5,242.1,35.3,311.9,0.152829409334986,33.0170730128719,0.741781486443697,35.1763031057011,40.7738752309072,37.7723625767188,67.9812107446401,3.7359761428497,263.596958154634,179.143028174456,174.052812101639,0.0284142571703091,-7.90134720168046,25.8344622790086,116.3,n
ea230119-P49,21488,21895,25461,25736,2023-01-19 19:26:35,40.7,356.6,27.5,424.8,0.145821648906338,32.6030072866156,0.780005484542543,34.9952099754637,40.9407261069782,71.7924744660915,218.160073164448,4.87077883683606,361.017278454712,277.429307837925,46.9266197494218,0.830851974093392,-8.85165776649047,44.9556461230133,133.6,n
ea230119-P49,27072,27405,30468,30771,2023-01-19 19:35:53,33.3,306.3,30.3,369.9,0.140385243225596,32.7879671058368,0.750537251886842,35.6067679128342,41.9260734049828,38.5814676137381,129.036652256543,8.07548514163055,306.371648143795,229.255624014784,184.249763961527,0.196313003210575,-9.16512069885495,22.0187651256424,229.2,n
ea230119-P49,33063,33437,36784,37129,2023-01-19 19:45:52,37.4,334.7,34.5,406.6,0.14042426053182,30.9645659821457,0.744135884175074,36.0037714250942,42.5056670285688,43.5570951371545,245.16018966153,7.71378378181613,330.49167856408,249.038655637605,75.8122898862498,0.695580231542166,-8.67875540031967,25.0434058254567,153.7,n
ea230119-P49,38666,39134,42137,42423,2023-01-19 19:55:13,46.8,300.3,28.6,375.7,0.123210123210123,28.5228898783266,0.69637030805765,33.2012409403033,47.7464368204311,23.2992399610798,64.4085515051527,9.05354960846016,283.671653009722,210.358199863031,199.919990841418,0.0496211178285829,-7.83752517728318,16.4383771318938,141,n
ea230119-P49,43833,44171,46756,47080,2023-01-19 20:03:49,33.8,258.5,32.4,324.7,0.131528046421663,24.805295937588,0.783423571269965,29.8617254672325,44.5003211509868,42.1470553335463,102.478074308761,10.7656919054023,281.56856930362,204.361716968852,172.920461450972,0.153851004895759,-8.17252542151321,32.9229093965345,167.8,n
ea230119-P49,48758,49116,49623,50164,2023-01-19 20:12:02,35.8,50.7,54.1,140.6,0.108481262327416,23.0761821868728,0.682285702759192,25.0284675366936,58.4111958358894,10.3819697997603,9.26642797019963,5.65135210036109,110.264702127769,35.7146319406796,32.8695206660335,0.0796623434163252,-6.96524404550209,7.18932735942258,343.5,n
ea230119-P49,53599,54089,55809,56093,2023-01-19 20:20:06,49,172,28.4,249.4,0.11046511627907,25.9184913101236,0.664663469512831,28.5587940876046,65.8546737628005,72.9265302828525,205.999831327632,9.31215852237636,178.919820471967,115.581423636789,64.9012956917643,0.438479872892773,-1.58666073707199,57.2856031462757,176.4,n
ea230119-P49,57857,58882,59568,59728,2023-01-19 20:27:12,102.5,68.6,16,187.1,0.10932944606414,29.9230631629355,0.752208038964042,43.9397159707509,69.9172132031449,nan,nan,33.458134079141,149.806780569479,53.4396843075072,42.9285690703376,0.196691192573025,39.406826128273,nan,152.8,n
ea230119-P49,61256,62052,63791,64447,2023-01-19 20:32:52,79.6,173.9,65.6,319.1,0.109258194364577,25.4964879320692,0.676214389447236,30.7425680334713,29.5778943170632,45.6849740004955,139.11718170655,5.76065785803417,233.58271864194,118.115148763789,107.574333614427,0.0892418564399542,3.20745878367994,26.2619796886809,nan,
ea230120-P46,16318,17057,19343,19954,2023-01-20 12:22:22,73.9,228.6,61.1,363.6,0.113735783027122,45.3880078025171,1.11607813042044,48.6891486860724,40.232636630392,13.4867738060642,54.0343935381202,6.88361291193269,404.204929865578,253.175972821284,241.576365172722,0.0458163842299115,-8.92472942519916,11.7329787578076,3308,n
ea230120-P46,53034,54327,55953,56666,2023-01-20 13:23:33,129.3,162.6,71.3,363.2,0.132226322263223,50.9440413006023,1.14760767106414,54.0009247342208,45.1866447331903,13.3645990660199,56.3104304553659,6.38564941260021,404.03820081722,185.884349050672,178.713986561013,0.0385743206799233,-7.84285776327625,9.13676245772723,157.7,n
ea230120-P46,58243,58775,61077,61909,2023-01-20 13:32:14,53.2,230.2,83.2,366.6,0.112945264986968,49.1041583721444,1.14640606120844,51.683315764082,39.3199032731954,14.7413965810522,61.0862677650472,6.29203024359724,412.52571111598,262.735529284504,251.966299160307,0.0409888611316653,-8.73529577829256,13.5412298120214,178.3,n
ea230120-P46,63692,65242,67307,67868,2023-01-20 13:41:19,155,206.5,56.1,417.6,0.11138014527845,48.8987329806838,1.08599078535483,52.2650681159283,51.5983547553299,62.076477845025,58.4390933716026,6.27902397456623,393.847000113695,222.909812684397,214.529357581551,0.0375957208968256,-3.50554512071556,57.6247057754355,616.3,n
ea230120-P46,74031,74606,77142,77795,2023-01-20 13:58:33,57.5,253.6,65.3,376.4,0.112381703470032,49.2171473886953,1.12868782467695,52.9034899651696,53.962656213266,17.7812530911654,140.027128170969,7.164567281158,421.686938571556,286.053939681031,213.165648640278,0.254806107974001,-6.79082548393133,16.7351682463238,156,n
ea230120-P46,79355,79934,82031,82838,2023-01-20 14:07:26,57.9,209.7,80.7,348.3,0.104911778731521,53.8719900730384,1.09963054847623,55.1694545218652,48.2268422023878,14.2968449668783,43.3602905156416,2.59923805066404,408.226096605854,228.130060093705,218.596688913403,0.0417891933066026,-9.73095225263896,12.0013946209373,146.9,n
ea230120-P46,84307,84821,87647,88262,2023-01-20 14:15:41,51.4,282.6,61.5,395.5,0.12208067940552,53.4100414069289,1.15285908764955,55.4664953467051,51.9334768807605,10.1026388207643,44.200017268769,7.55420254195034,470.907694990474,324.354139590984,311.518045854118,0.0395743176056035,-8.61712197085232,12.5023001380394,118.2,n
ea230120-P46,89444,90011,91166,91850,2023-01-20 14:24:14,56.7,115.5,68.4,240.6,0.103896103896104,56.8691779783239,1.11948982462122,57.9178934690769,56.9898772632929,28.4726826525966,139.332150105761,2.95679407954363,278.102764008094,128.601525533508,96.9525165555318,0.24610134947217,-8.03724412670829,23.9242216789669,94.5,n
ea230120-P46,92795,94342,96058,96721,2023-01-20 14:29:50,154.7,171.6,66.3,392.6,0.0903263403263403,53.8740184907259,1.1058741363316,56.9219254583875,79.5608866488525,73.4578754987591,328.550018770191,6.67258335120345,376.323307543913,184.826385476435,33.8027334384278,0.817110888408638,-11.0306456973404,38.842407890555,167.4,n
ea230120-P46,98395,100193,102601,103092,2023-01-20 14:39:10,179.8,240.8,49.1,469.7,0.149501661129568,54.4349493892687,1.21325389547008,57.4938795416806,74.9444348133237,133.210105500087,204.853707729234,6.35593656469946,508.469447183128,289.252733106273,205.143967640819,0.290779501241747,-5.90762677691373,84.1157272844899,163.9,n
ea230120-P46,104731,105998,109239,109706,2023-01-20 14:49:43,126.7,324.1,46.7,497.5,0.148102437519284,55.5855388993147,1.21850447117692,58.6765984087995,42.4426403089031,77.400246036208,437.197965827117,5.88002266226028,570.783389904084,395.366728994439,249.525652038719,0.368875442115846,-6.98412020149063,69.8888845209117,156.3,n
ea230120-P46,111269,111821,114958,115469,2023-01-20 15:00:37,55.2,313.7,51.1,420,0.145043034746573,56.0558034967287,1.31715385872062,58.7476507717666,39.9349955176129,41.4910860731046,283.363919329055,5.50472643149594,562.216708591634,412.965503333252,73.8865436329662,0.821083012899163,-9.01402518834036,33.9759107773377,118,n
ea230120-P46,116649,117118,120337,120807,2023-01-20 15:09:35,46.9,321.9,47,415.8,0.149114631873253,55.7457994717667,1.26705810730253,61.2058658922073,45.9817991779478,41.3821057319499,140.773326468546,10.3270848998981,544.648898199723,407.681890171346,275.078391935693,0.325262174829302,-8.08729400398276,35.8534745325613,160.2,n
ea230120-P46,122409,124492,127060,127535,2023-01-20 15:19:11,208.3,256.8,47.5,512.6,0.118769470404984,53.3144279066542,1.1068670986658,56.2421321678121,63.5808661856829,35.4767567548197,210.74442001066,6.107055912543,516.082622830578,281.937650179303,112.828119349033,0.599811804924676,-8.86315091863316,28.5234246990042,133.4,n
ea230120-P46,128869,129547,133041,133503,2023-01-20 15:29:57,67.8,349.4,46.2,463.4,0.123068116771608,53.42914583892,1.19501560903996,59.8686680141828,69.7136498710066,74.4293387660294,219.865024018397,13.1845322220861,561.688787912548,418.412345358395,173.030684030096,0.586458941879727,-6.45367731141442,57.6534368109101,140.3,n
ea230120-P46,134906,135378,138508,138971,2023-01-20 15:40:01,47.2,313,46.3,406.5,0.137380191693291,45.7609715768208,1.18288218948041,51.0846602775244,36.4120507080664,15.9492138876803,44.0091596715661,8.41587591178004,490.023778171816,370.256670672938,361.733367720738,0.0230199848572861,-7.04293990979432,14.338417096686,112.5,n
ea230120-P46,140096,140454,143952,144477,2023-01-20 15:48:40,35.8,349.8,52.5,438.1,0.128644939965695,44.6700450290338,1.12709600468129,46.3677413794703,51.2122256461175,53.9349159480208,401.878107926467,4.07129055162952,501.947259376998,388.653864906356,95.2270680354184,0.75498232068691,-10.9912211668529,41.5755735312932,109.1,n
ea230120-P46,145568,146021,149224,149803,2023-01-20 15:57:47,45.3,320.3,57.9,423.5,0.134249141429909,48.0630125104437,1.15332263987593,50.5177258721805,43.2371263920271,46.3478058211865,138.768218858427,4.87575323106546,503.002720660792,367.725559076358,294.519108750613,0.199079037393055,-8.49446249575986,36.0356878181148,106.4,n
ea230120-P46,150867,151295,155633,156059,2023-01-20 16:06:37,42.8,433.8,42.6,519.2,0.131396957123098,51.4538180085257,1.17418989799112,54.4392635497619,53.1593151329533,31.8400999239457,172.51480052942,4.83670509366414,632.742045656334,508.014881078159,329.39039939114,0.351612695494125,-7.80763847653482,20.9927062838422,133,n
ea230120-P46,157389,157765,161018,161591,2023-01-20 16:17:29,37.6,325.3,57.3,420.2,0.132185674761758,53.1968637521248,1.18670301636971,57.4310505769824,51.43391394817,21.5734767972593,51.5740247253666,9.92914636184023,525.043300650621,385.313418976419,363.826354562668,0.0557651598816133,-8.82884375851165,17.828635143438,127.3,n
ea230120-P46,162864,163374,165369,166257,2023-01-20 16:26:36,51,199.5,88.8,339.3,0.120300751879699,57.6255825795682,1.16168589377262,62.2652712970369,41.5478183695253,25.4556867738526,117.735073314944,6.6946520858753,410.872141545257,231.137676196147,155.771078690564,0.326067990065046,-8.98811936466512,27.4435535723118,102.4,n
ea230120-P46,167281,167854,171119,171674,2023-01-20 16:33:58,57.3,326.5,55.5,439.3,0.134762633996937,54.8993300719166,1.19291400529306,57.1941554022469,49.5490643699074,16.3112874690701,71.7160480733269,6.101837778348,547.661152367009,390.013708032465,363.258138483909,0.0686016132190108,-6.80684633364774,15.6688270392125,108.6,n
ea230120-P46,172760,173216,176571,177055,2023-01-20 16:43:06,45.6,335.5,48.4,429.5,0.134128166915052,52.3553512455692,1.17625069570805,53.8545787856333,61.6582599303189,36.7878318473725,320.14104278141,4.87529552875147,521.986847904827,393.506213464798,112.867842467026,0.713173925582441,-8.22719216191363,23.0697531224423,104.8,n
ea230120-P46,178103,178547,182172,182614,2023-01-20 16:52:00,44.4,362.5,44.2,451.1,0.135172413793103,48.9551900733321,1.18900017868788,51.1333821958907,51.2146914338573,13.5906456799905,26.301570316441,6.31979966691567,561.012402843694,432.219308305665,420.429876675653,0.0272765038568691,-7.12618903844808,14.2301303083678,97.5,n
ea230120-P46,183589,183953,186997,187435,2023-01-20 17:01:09,36.4,304.4,43.8,384.6,0.144546649145861,45.6396377945325,1.19656481639573,47.8763263659194,42.0611320220579,16.0876583279591,168.074610997751,4.60759738945115,475.452921328318,363.754184330062,246.163893207669,0.323268559340323,-8.45360379728377,12.8404083368443,82.8,n
ea230120-P46,188263,190229,192007,192393,2023-01-20 17:08:56,196.6,177.8,38.6,413,0.137795275590551,44.8297139365457,1.21949376894211,46.780604869007,51.1067161604063,42.6256785624987,162.759598663227,3.51088978040445,477.153406899675,216.9585145461,133.776349417763,0.383401247479789,-7.27934153180237,29.4351644954479,86.4,n
ea230120-P46,193257,193597,196924,197362,2023-01-20 17:17:16,34,332.7,43.8,410.5,0.126239855725879,42.6574480709107,1.15274330570275,45.4459199220906,66.3788366691761,41.4372676067634,351.408267409345,6.81583346144709,483.606305583198,374.071903981093,52.6247663786394,0.859319115339656,-12.1081983904324,42.3048543650517,86.4,n
ea230120-P46,198226,198572,202291,202648,2023-01-20 17:25:33,34.6,371.9,35.7,442.2,0.147889217531595,43.2571825551714,1.19930444083379,46.3596345654459,44.0656586630369,19.2950340127317,333.869649843392,5.29111352034997,548.974616335866,445.077741529603,151.242473236728,0.660188638692757,-8.88195352803494,12.8688623005905,95.4,n
ea230120-P46,203602,203932,207328,207705,2023-01-20 17:34:30,33,339.6,37.7,410.3,0.151648998822144,44.4412965311891,1.25507537920685,46.4017622580545,56.4767545144842,53.6341249152665,175.139582813671,5.52957952121411,532.765940831685,425.947765501717,179.868683083332,0.577721266194536,-7.61114930040685,51.0070109894071,97.5,n
ea230120-P46,208680,209051,212648,212992,2023-01-20 17:42:58,37.1,359.7,34.4,431.2,0.147345009730331,46.037420321742,1.25272562919815,49.1412891475238,42.5348554957457,28.1669419382727,310.356291918072,7.32219524390624,565.897225945477,452.889969061516,146.792934880967,0.675875058162244,-5.90588206721319,24.9452755301313,99.5,n
ea230120-P46,213987,214299,217592,217939,2023-01-20 17:51:49,31.2,329.3,34.7,395.2,0.157910719708473,44.5651188706337,1.25930639160251,49.9495040299314,80.6699240620603,94.7025087411076,178.085070668517,10.1219673627266,510.950370663739,414.143790848249,179.989859804687,0.565392832677675,-8.02453825162473,65.9063074063035,78.7,n
ea230120-P46,218726,219054,222561,222906,2023-01-20 17:59:43,32.8,350.7,34.5,418,0.162532078699743,40.9655045551963,1.28251167829948,43.254158322216,29.9258251763684,80.6583308573457,234.050181587035,4.09924228725406,561.071147603464,450.245245264301,40.282190604691,0.910532779572065,-6.80231165383847,81.5876350007665,87,n
ea230120-P46,223776,224095,227385,227728,2023-01-20 18:08:08,31.9,329,34.3,395.2,0.153495440729483,41.5705578304197,1.25719475961308,44.3958757955177,42.5459582658872,43.7421158265328,131.809916707601,5.77644810778772,516.834917149522,414.356603283434,304.243528198668,0.2657447092968,-6.73921016201671,44.0456430850593,85.2,n
ea230120-P46,228580,228905,232203,232529,2023-01-20 18:16:08,32.5,329.8,32.6,394.9,0.166767738023044,41.167901357041,1.28597352220095,43.2176347177111,32.4685275211616,79.9256287567698,301.580647624092,5.50935913948162,529.088047192779,422.926437663351,155.174181061287,0.633094157181052,-8.46782950247981,65.4167984879096,80.4,n
ea230120-P46,233333,233632,236983,237275,2023-01-20 18:24:03,29.9,335.1,29.2,394.2,0.167114294240525,39.43149688047,1.30054871132372,40.9338656540686,28.6445288467311,44.7785158782357,184.419023958407,4.76311942134598,530.676219088044,435.225815098305,222.435057969464,0.488920348350149,-8.09290839034755,38.0903821974305,77.5,n
ea230120-P46,238050,238322,241709,242012,2023-01-20 18:31:55,27.2,338.7,30.3,396.2,0.16829052258636,38.2880843048835,1.29220697712275,41.6103410799529,40.8016077663272,97.275768999814,295.144629052389,6.08523669262926,529.539715422522,436.092674118377,219.675762646187,0.496263579546957,-7.42531903136451,94.7758013990389,71.6,n
ea230120-P46,242728,242999,245998,246305,2023-01-20 18:39:43,27.1,299.9,30.7,357.7,0.168389463154385,39.7404631356719,1.3640759777715,41.7807315535089,45.3520876199062,121.397229427057,418.99633703566,4.36665993491776,509.056568364223,406.686547351919,53.0762527758182,0.86949100450601,-7.14480871964393,88.5562980551604,59.4,n
ea230120-P46,246899,247195,250046,250322,2023-01-20 18:46:40,29.6,285.1,27.6,342.3,0.171869519466854,39.6416056049474,1.39895903223726,43.2383450888896,52.8245116205981,28.40228405738,173.459967736831,6.09966558730562,493.423701057889,397.166378367171,202.607224861719,0.48986813613308,-8.62817111145517,28.7540099394865,77,n
ea230120-P46,251092,251400,254230,254547,2023-01-20 18:53:39,30.8,283,31.7,345.5,0.169611307420495,41.0015448670085,1.33102517557954,43.0212466872869,44.5913362655265,109.141057746055,451.793593488321,4.44976691456407,473.847103592454,373.750380142597,119.364172558935,0.680631301262104,-8.8475324995403,91.2514695867333,59,n
ea230120-P46,255137,255405,257752,258054,2023-01-20 19:00:24,26.8,234.7,30.2,291.7,0.161908819769919,36.3437457471082,1.38179706667853,39.8410906603436,39.4501865641893,143.985821125715,192.809543223035,5.82819035822504,425.943051794139,322.54058899129,194.935333287433,0.395625419122995,-9.11277414682931,78.6363811277465,51.4,n
ea230120-P46,258568,258846,261550,261841,2023-01-20 19:06:07,27.8,270.4,29.1,327.3,0.157174556213018,38.2422409311496,1.35022760879338,40.6205423694003,47.8128166937446,30.9260787300111,199.356108328514,4.6658873603776,462.721970666327,364.826179528173,191.13486187279,0.476093349112219,-8.10218323715282,28.8176312431145,78.8,n
ea230120-P46,262629,262975,265875,266201,2023-01-20 19:12:53,34.6,290,32.6,357.2,0.151724137931034,35.1518309178945,1.2692372394462,39.281168236096,45.038372394641,35.6632676743594,136.143824633108,6.40827081317333,482.246577506802,367.79677475802,324.36372771847,0.118089798552816,-8.34147379778825,21.8432419028315,74.8,n
ea230120-P46,266949,267260,269353,269721,2023-01-20 19:20:05,31.1,209.3,36.8,277.2,0.138557095078834,39.7817427125783,1.27224508073187,42.0557943760985,55.5709647325887,29.0847453899004,165.127281327453,5.43828585438096,386.73956855925,267.497030372156,193.289181296397,0.277415599614384,-6.97883083016965,22.9084189109771,74.4,n
ea230120-P46,270465,270733,273519,273863,2023-01-20 19:25:57,26.8,278.6,34.4,339.8,0.148959081119885,34.7681754339731,1.2780185337632,38.5549149762824,48.2209814706621,25.5205068419017,54.1321727850209,10.4316837360956,462.885998152818,356.741751142119,341.083176651702,0.0438933050036499,-7.83012597411221,16.6493026952644,83.7,n
ea230120-P46,274700,275029,278622,278935,2023-01-20 19:33:00,32.9,359.3,31.3,423.5,0.157250208739215,35.8359094842,1.2645447079712,41.5737480725019,38.5004366310151,44.7664747202466,99.9337207575591,9.12135999416405,556.461156604633,453.293552635179,388.783941583146,0.142313100808545,-8.57256653277015,27.1125944723769,nan,n
ea230120-P48a,6148,7579,9106,9580,2023-01-20 13:23:47,143.1,152.7,47.4,343.2,0.130975769482646,50.8212561620039,0.806170568705778,54.4783173558252,44.9822113000796,37.9648891931328,33.8821565225814,11.2094820601458,306.638207284089,124.182336412629,120.486745825427,0.0297593900546566,-4.20526200397402,32.5785170334748,173.9,y
ea230120-P48a,11319,11809,14286,14826,2023-01-20 13:32:24,49,247.7,54,350.7,0.131207105369398,47.8152630427624,0.788629786370458,51.7665690380652,98.0385824992136,63.2371552360339,47.9443329134506,11.1791445822484,310.979336754214,198.021533602792,187.821321482525,0.0515106207627276,-4.20604680256285,35.5169039056844,195.1,y
ea230120-P48a,16777,17816,19675,20334,2023-01-20 13:41:30,103.9,185.9,65.9,355.7,0.0860677783754707,49.5414888874147,0.745148100978688,53.3933959223663,77.788355455528,67.7177541961952,89.3040736292648,7.53020389658187,285.25950486744,136.278975599622,124.241567448453,0.0883291652157242,1.42170926988606,52.7052266844489,240.3,y
ea230120-P48a,22737,24492,24680,25449,2023-01-20 13:51:26,175.5,18.8,76.9,271.2,0.159574468085106,48.0425937564409,0.77072825013588,59.9530254025242,46.3251922988557,18.220081277482,10.8211219657767,7.93953853840173,226.105597328823,15.7247128654749,15.2051742520972,0.0330396248136471,22.6167592699882,20.5856155653144,230.5,y
ea230120-P48a,27754,28492,30165,30892,2023-01-20 13:59:48,73.8,167.3,72.7,313.8,0.107591153616258,50.5081762224249,0.745932084803537,52.0498744305959,53.553762449201,32.6119850588573,68.5159719076779,5.31898455669529,273.625799410941,125.673342982892,114.772518635331,0.0867393521078296,-3.2328455988995,16.4571950362208,151.2,y
ea230120-P48a,32404,32994,34350,35719,2023-01-20 14:07:33,59,135.6,136.9,331.5,0.0848082595870207,48.2717469987677,0.744384266226957,52.1556465993671,54.1261460396372,28.6326017194687,33.2717337851826,9.14799367164951,283.026117302264,102.138932981537,97.9316464289216,0.0411918005191562,-2.8799181526956,19.434876279189,nan,y
ea230120-P48b,60705,61482,66230,66827,2023-01-20 14:54:43,77.7,474.8,59.7,612.2,0.132687447346251,60.8267854049201,1.14525537264812,65.8503922419634,64.2771789513916,73.0552756445779,72.0742836729996,7.9236315756544,692.109351437602,471.250823651212,452.111469798408,0.0406139424956625,-28.4495482004594,54.3979226936112,110.9,y
ea230120-P48b,67936,68565,73160,73675,2023-01-20 15:06:46,62.9,459.5,51.5,573.9,0.140369967355822,57.3098268755027,1.47281072565652,60.2933475625235,88.9955263337133,nan,nan,9.6165641917779,774.587851085421,594.965907025683,444.960525775277,0.252124330955877,-25.0623047665256,nan,179.6,y
ea230120-P48b,75471,77000,82492,83133,2023-01-20 15:19:19,152.9,549.2,64.1,766.2,0.125637290604516,54.4126522881297,1.19645178437013,59.274635220899,113.914105954391,nan,nan,9.87210827566383,816.205859262506,584.504442482801,117.790059780501,0.798478760434798,-21.4167500890834,nan,243.6,y
ea230120-P48b,85569,86133,90610,91056,2023-01-20 15:36:09,56.4,447.7,44.6,548.7,0.144069689524235,53.3685170967582,1.46205504798794,56.2843961959156,86.8993695655032,nan,nan,7.55352788439419,713.729223313861,558.307821045704,242.402565599831,0.565826312184175,-29.4264215753109,nan,112.9,y
ea230120-P48b,92185,92534,95279,95700,2023-01-20 15:47:11,34.9,274.5,42.1,351.5,0.127504553734062,45.8205364022357,1.52295517288392,49.2315321243278,80.2022285127032,nan,nan,7.3387027461196,525.422449859633,385.18480345972,369.893618080557,0.0396983090761069,-17.0311425906585,nan,92.6,y
ea230120-P48b,96626,97667,102890,103290,2023-01-20 15:54:35,104.1,522.3,40,666.4,0.123492245835727,45.4553459588487,1.36325687611636,48.1189587994756,140.0543225847,nan,nan,6.45966692054896,790.151191649896,617.989870284977,226.089966905735,0.63415263295258,-22.4498693984319,nan,142.1,y
ea230120-P48b,104711,105799,110530,110954,2023-01-20 16:08:03,108.8,473.1,42.4,624.3,0.15430141619108,52.5928011452219,1.35216432177357,57.8689187530139,92.9779502729953,nan,nan,12.7926276060889,759.744895571671,581.343406559457,388.65274650202,0.331457547954025,-21.9719046803583,nan,106.6,y
ea230120-P48b,112020,112470,117236,117673,2023-01-20 16:20:14,45,476.6,43.7,565.3,0.133235417540915,54.1506669312894,1.40442198197007,60.0845516154939,98.1825427742655,nan,nan,15.2689240199147,753.692495824483,597.104894840679,290.484779101122,0.513511308295958,-21.0024911515082,nan,89,y
ea230120-P48b,118563,118953,123072,123541,2023-01-20 16:31:08,39,411.9,46.9,497.8,0.134741442097597,50.9047826726288,1.37826427730508,54.6215574359909,95.3216313814657,nan,nan,7.19167331889558,661.612765637032,514.108266873473,468.96481754207,0.0878092266555854,-21.4215360491414,nan,69,y
ea230120-P48b,124231,124621,128640,129015,2023-01-20 16:40:35,39,401.9,37.5,478.4,0.144314506096044,49.4092276992157,1.39448093195491,51.6469221708879,108.125229448151,nan,nan,5.61362521378218,657.0811874692,507.198602989604,93.2982877201702,0.816051765185792,-20.1661558205282,nan,92.1,n
ea230120-P48b,129936,130353,134768,135175,2023-01-20 16:50:06,41.7,441.5,40.7,523.9,0.134767836919592,47.1305394118409,1.48140403008952,50.7057500910429,111.954049872783,146.738783646599,429.668810767462,6.74357351939436,756.320016369086,616.569140862862,339.146274309973,0.449946077685054,-6.72033857929934,79.4268077594983,85.1,n
ea230120-P48b,136026,136784,141969,142361,2023-01-20 17:00:15,75.8,518.5,39.2,633.5,0.132111861137898,47.3221962353736,1.43083155440204,50.9152635544161,123.006494204466,nan,nan,8.72317215676296,855.673189971716,684.54721118144,563.72772911599,0.176495470424797,-16.3495816865562,nan,98.2,n
ea230120-P48b,143343,143746,148586,148928,2023-01-20 17:12:26,40.3,484,34.2,558.5,0.117768595041322,47.0630268721312,1.46499401994884,50.1930029115534,129.179848967297,nan,nan,5.73619679937312,800.260239576768,651.50574945982,78.2067879959191,0.879959941933341,-13.0228692728943,nan,92.7,n
ea230120-P48b,149855,150333,154970,155380,2023-01-20 17:23:18,47.8,463.7,41,552.5,0.119689454388613,46.0175964107341,1.44043231040461,48.3746148897441,107.672214896626,119.754442266301,448.08616054134,4.30892517364077,768.87662134786,624.430128313883,313.844993934553,0.497389732327597,-5.3134843175804,66.5086407445781,99.9,n
ea230120-P48b,156379,156735,161557,161955,2023-01-20 17:34:10,35.6,482.2,39.8,557.6,0.132725010369141,45.1227886218446,1.42678220856706,47.3181067266395,127.035352799379,nan,nan,8.26317575664483,778.206761078888,634.242367838166,243.726745658223,0.6157198603919,-7.72469173631759,nan,94.6,n
ea230120-P48b,162901,163296,168052,168423,2023-01-20 17:45:02,39.5,475.6,37.1,552.2,0.130361648444071,43.9360923626344,1.43231311806922,46.3481418933719,142.211810586083,nan,nan,6.71332501406015,735.964843996967,594.083444727656,227.850642164275,0.616466938800612,-12.9807540151838,nan,89.2,n
ea230120-P48b,169315,169733,174299,174683,2023-01-20 17:55:44,41.8,456.6,38.4,536.8,0.127025843188787,43.6056227847963,1.438317097529,45.7221407417525,143.475007207026,nan,nan,7.40087006641583,731.098231283783,593.46941366119,71.1239507414529,0.880155659071493,-12.2770136944979,nan,87.6,n
ea230120-P48b,175559,175886,179792,180160,2023-01-20 18:06:08,32.7,390.6,36.8,460.1,0.136968766001024,42.1960356719822,1.42409768648324,44.2391743137471,97.4857500169398,nan,nan,5.32168609098284,658.243290827628,518.286780828521,140.811764254405,0.728313031582039,-13.0637293528038,nan,59.9,n
ea230120-P48b,180759,181097,183515,183847,2023-01-20 18:14:48,33.8,241.8,33.2,308.8,0.159222497932175,41.3977444173851,1.61159004640446,43.1670873166123,77.9131029575534,99.8932488907349,80.0417156721878,4.88688603497275,504.766972353121,368.157435256209,349.941706903061,0.0494780944474786,-13.3746072021659,72.1758456897594,72.2,n
ea230120-P48b,184569,184890,188262,188615,2023-01-20 18:21:09,32.1,337.2,35.3,404.6,0.151245551601424,40.5653492771967,1.73468300590186,44.2927996810216,90.390708340155,nan,nan,6.86367525327908,675.180151900367,550.601730668515,332.708899140832,0.395735827533864,-11.9691387480596,nan,62.3,n
ea230120-P48b,189238,189592,192907,193225,2023-01-20 18:28:56,35.4,331.5,31.8,398.7,0.122171945701357,39.6832596298223,1.65603191691299,41.9479525518645,103.166770088078,nan,nan,5.05267346472451,639.736482450674,506.042343326577,344.39817790859,0.319428141833715,-14.6896387072092,nan,85.5,n
ea230120-P48b,194080,194373,198170,198531,2023-01-20 18:37:00,29.3,379.7,36.1,445.1,0.160653147221491,38.6451408451106,1.55216646940622,41.4158331428123,82.6379137405206,119.899944843761,245.543537612248,7.30921302037707,675.590053972168,554.45333664808,369.287242771001,0.333961546694788,-15.248060454379,80.6175398961188,81.2,n
ea230120-P48b,199343,199944,204010,204404,2023-01-20 18:45:46,60.1,406.6,39.4,506.1,0.124200688637482,42.6585592691159,1.36026882328024,45.991910302522,86.1337855029863,nan,nan,7.93077321230977,667.460003062493,514.491499782121,353.782812049288,0.312364126134037,-15.7048170297908,nan,72.6,n
ea230120-P48b,205130,205634,209823,210197,2023-01-20 18:55:25,50.4,418.9,37.4,506.7,0.128909047505371,44.3124845454728,1.37003691554705,47.0485655769407,124.008862102769,nan,nan,5.55758744267749,689.634662639817,531.296038898019,197.578508248817,0.628119741568896,-12.7643583448604,nan,93.9,n
ea230120-P48b,211136,211580,216153,216585,2023-01-20 19:05:26,44.4,457.3,43.2,544.9,0.137765143232014,43.6576543612834,1.51369952763354,45.6045677725592,99.7006950642544,129.23874254568,234.189407364926,4.51625119708307,803.628008616239,651.267712004081,397.147559561082,0.390193076916127,-9.92061396598015,98.4483094680841,nan,n
